City_ID,City,Lat,Lng,Max Temp,Humidity,Cloudiness,Wind Speed,Country,Date
0,dudinka,69.4058,86.1778,20.13,52,57,8.59,RU,1722178539
1,amga,60.8953,131.9608,14.9,88,61,1.54,RU,1722178541
2,thompson,55.7435,-97.8558,14.09,100,100,3.09,CA,1722178542
3,grytviken,-54.2811,-36.5092,1.35,94,100,1.9,GS,1722178544
4,luderitz,-26.6481,15.1594,17.58,44,0,12.24,NA,1722178545
5,whitehorse,60.7161,-135.0538,10.05,87,20,1.03,CA,1722178546
6,qaqortoq,60.7167,-46.0333,6.73,71,5,3.91,GL,1722178548
7,tiksi,71.6872,128.8694,3.54,97,100,3.82,RU,1722178549
8,port-aux-francais,-49.35,70.2167,1.34,74,83,15.83,TF,1722178552
9,west island,-12.1568,96.8225,26.99,78,6,9.77,CC,1722178553
10,reggane,26.7158,0.1714,46.41,9,0,5.82,DZ,1722178556
11,bernardo de irigoyen,-26.2552,-53.6458,15.56,91,100,1.36,AR,1722178557
12,korla,41.7597,86.1469,34.74,17,8,3.15,CN,1722178558
13,adamstown,-25.066,-130.1015,20.49,82,51,2.87,PN,1722178560
14,port mathurin,-19.6833,63.4167,22.46,78,73,6.33,MU,1722178512
15,bel ombre,-4.6167,55.4167,25.91,78,20,4.12,SC,1722178562
16,jackson,42.4165,-122.8345,15.92,72,0,0.45,US,1722178456
17,albany,42.6001,-73.9662,25.69,68,0,0.45,US,1722178429
18,atafu village,-8.5421,-172.5159,27.62,69,91,3.03,TK,1722178569
19,shimanovsk,52.0,127.7,17.67,80,18,0.74,RU,1722178570
20,iqaluit,63.7506,-68.5145,9.85,61,75,3.6,CA,1722178289
21,utrik,11.2278,169.8474,27.41,76,99,0.07,MH,1722178573
22,ribeira grande,38.5167,-28.7,27.22,89,75,5.14,PT,1722178576
23,hithadhoo,-0.6,73.0833,28.94,76,100,5.75,MV,1722178577
24,antofagasta,-23.65,-70.4,14.6,71,31,3.84,CL,1722178579
25,college,64.8569,-147.8028,11.18,89,100,6.69,US,1722178580
26,phon,15.816,102.5998,24.96,89,100,6.01,TH,1722178582
27,mundo novo,-11.8589,-40.4725,24.77,55,85,3.47,BR,1722178332
28,rongelap,11.1635,166.8941,27.48,77,94,3.97,MH,1722178588
29,yellowknife,62.456,-114.3525,18.56,77,40,6.71,CA,1722178589
30,rangia,26.4667,91.6333,31.97,78,52,3.08,IN,1722178591
31,georgetown,5.4112,100.3354,30.96,78,20,3.6,MY,1722178568
32,edinburgh of the seven seas,-37.0676,-12.3116,13.93,91,100,6.24,SH,1722178593
33,ilulissat,69.2167,-51.1,5.01,93,75,3.09,GL,1722178597
34,stanley,54.868,-1.6985,24.17,52,57,3.02,GB,1722178599
35,hawaiian paradise park,19.5933,-154.9731,22.16,85,100,2.06,US,1722178600
36,blackmans bay,-43.0167,147.3167,3.74,88,92,3.46,AU,1722178601
37,bredasdorp,-34.5322,20.0403,10.19,71,47,7.38,ZA,1722178603
38,tsiombe,-25.3,45.4833,20.87,78,0,4.07,MG,1722178604
39,andergrove,-21.0833,149.1833,18.69,64,97,7.23,AU,1722178608
40,san patricio,28.017,-97.5169,31.03,76,81,5.28,US,1722178609
41,derzhavinsk,51.1,66.3167,20.68,45,49,5.47,KZ,1722178610
42,port elizabeth,-33.918,25.5701,12.16,64,20,12.86,ZA,1722178612
43,nouadhibou,20.931,-17.0347,24.99,73,20,8.75,MR,1722178513
44,bichura,50.5881,107.6022,20.38,79,41,1.59,RU,1722178614
45,revda,56.801,59.9303,10.04,94,100,3.92,RU,1722178620
46,laguna,38.421,-121.4238,15.86,87,20,2.06,US,1722178621
47,midvagur,62.0511,-7.1939,12.46,94,100,5.14,FO,1722178622
48,aasiaat,68.7098,-52.8699,3.15,86,100,1.86,GL,1722178624
49,ostersund,63.1792,14.6357,16.45,59,0,8.23,SE,1722178350
50,olonkinbyen,70.9221,-8.7187,4.3,99,100,4.48,SJ,1722178628
51,tete,-16.1564,33.5867,34.05,12,0,2.24,MZ,1722178630
52,champerico,14.3,-91.9167,27.3,82,100,2.99,GT,1722178631
53,novofedorivka,46.1713,32.3178,28.93,44,0,5.59,UA,1722178632
54,namibe,-15.1961,12.1522,19.01,74,18,3.77,AO,1722178634
55,bethel,41.3712,-73.414,27.78,65,0,1.34,US,1722178635
56,brookings,44.3114,-96.7984,25.03,81,0,6.69,US,1722178559
57,watsa,3.0372,29.5355,22.74,85,71,1.4,CD,1722178640
58,tazovsky,67.4667,78.7,18.03,64,0,4.65,RU,1722178641
59,waitangi,-43.9535,-176.5597,11.01,95,77,0.89,NZ,1722178642
60,arraial do cabo,-22.9661,-42.0278,29.92,45,0,6.17,BR,1722178644
61,alesund,62.4723,6.1549,16.29,78,75,7.2,NO,1722178645
62,ujae,8.9322,165.7642,27.13,79,100,4.1,MH,1722178649
63,clodomira,-27.5744,-64.1311,20.03,40,16,5.01,AR,1722178650
64,longyearbyen,78.2186,15.6401,11.91,82,0,2.57,SJ,1722178651
65,bizerte,37.2744,9.8739,34.0,46,0,8.75,TN,1722178653
66,vilyuchinsk,52.9306,158.4028,11.15,95,38,0.54,RU,1722178654
67,mogocha,53.7333,119.7667,19.08,63,0,1.36,RU,1722178656
68,udachny,66.4167,112.4,17.62,72,69,3.37,RU,1722178657
69,jamestown,42.097,-79.2353,27.23,49,1,1.79,US,1722178658
70,marka,1.7159,44.7717,25.06,81,22,6.78,SO,1722178661
71,kodiak,57.79,-152.4072,9.73,93,75,0.0,US,1722178662
72,neryungri,56.6709,124.6491,16.81,88,0,1.44,RU,1722178667
73,barcelos,41.5388,-8.6151,33.29,55,98,3.56,PT,1722178668
74,quellon,-43.1167,-73.6167,7.0,66,13,4.01,CL,1722178669
75,kudymkar,59.0173,54.656,11.5,97,100,4.39,RU,1722178671
76,vila franca do campo,37.7167,-25.4333,24.23,64,57,0.83,PT,1722178673
77,yigo village,13.5361,144.8886,27.16,94,40,2.57,GU,1722178674
78,papatowai,-46.5619,169.4708,7.23,90,99,0.82,NZ,1722178677
79,glace bay,46.1969,-59.957,26.2,68,40,5.14,CA,1722178679
80,baidoa,3.1138,43.6498,30.75,33,69,5.82,SO,1722178680
81,bilibino,68.0546,166.4372,7.9,86,100,1.77,RU,1722178681
82,la passe,45.5549,-0.8967,33.13,50,6,3.96,FR,1722178684
83,altamont,42.2068,-121.7372,13.2,74,0,0.89,US,1722178687
84,port saint john's,-31.6229,29.5448,20.93,31,0,9.69,ZA,1722178689
85,krasnoarmeysk,51.0239,45.6969,27.59,29,62,5.15,RU,1722178690
86,sarikei,2.1167,111.5167,26.62,86,88,0.66,MY,1722178691
87,kill devil hills,36.0307,-75.676,27.0,71,0,5.14,US,1722178693
88,wailua homesteads,22.0669,-159.378,22.44,90,75,5.66,US,1722178694
89,touros,-5.1989,-35.4608,28.55,65,5,6.98,BR,1722178697
90,fort mcmurray,56.7268,-111.381,13.77,94,0,1.03,CA,1722178699
91,cabo san lucas,22.8909,-109.9124,29.54,56,26,4.46,MX,1722178700
92,brumado,-14.2036,-41.6653,25.99,48,36,4.49,BR,1722178701
93,tehachapi,35.1322,-118.449,21.13,43,0,2.24,US,1722178703
94,port macquarie,-31.4333,152.9167,9.48,53,0,1.34,AU,1722178704
95,ola,59.5833,151.2833,11.15,81,100,1.1,RU,1722178707
96,port lincoln,-34.7333,135.8667,10.23,73,9,5.52,AU,1722178708
97,robertsport,6.7533,-11.3686,25.83,85,100,6.19,LR,1722178710
98,isafjordur,66.0755,-23.124,13.02,62,100,1.54,IS,1722178711
99,castillos,-34.1667,-53.8333,11.7,49,100,4.31,UY,1722178712
100,itacare,-14.2775,-38.9967,25.65,73,97,2.89,BR,1722178497
101,aykhal,66.0,111.5,15.2,85,16,3.35,RU,1722178716
102,praia da vitoria,38.7333,-27.0667,27.14,74,75,2.03,PT,1722178717
103,hermanus,-34.4187,19.2345,9.33,69,50,8.91,ZA,1722178718
104,amahai,-3.3333,128.9167,25.77,91,57,1.37,ID,1722178720
105,coquimbo,-29.9533,-71.3436,9.85,100,100,1.54,CL,1722178537
106,ust-nera,64.5667,143.2,14.24,55,55,2.0,RU,1722178722
107,novyy urengoy,66.0833,76.6333,23.49,48,9,8.4,RU,1722178725
108,island harbour,50.724,-1.2758,23.44,58,0,2.24,GB,1722178726
109,east london,-33.0153,27.9116,16.52,25,0,10.8,ZA,1722178728
110,chui,-33.6971,-53.4616,12.38,53,95,5.2,UY,1722178729
111,newman,37.3138,-121.0208,17.23,80,0,0.45,US,1722178730
112,invercargill,-46.4,168.35,5.57,99,100,0.91,NZ,1722178243
113,cole harbour,44.6724,-63.4751,25.54,71,4,1.79,CA,1722178735
114,ulladulla,-35.35,150.4667,5.43,54,90,8.44,AU,1722178736
115,nar'yan-mar,67.6713,53.087,13.36,80,100,5.75,RU,1722178552
116,puerto natales,-51.7236,-72.4875,1.25,86,75,5.66,CL,1722178739
117,tahe,52.3333,124.7333,19.0,67,4,1.44,CN,1722178740
118,flying fish cove,-10.4217,105.6791,24.82,83,75,5.14,CX,1722178741
119,tura,25.5198,90.2201,26.05,94,65,1.67,IN,1722178745
120,campo verde,-20.4167,-54.0667,32.3,17,0,4.44,BR,1722178746
121,kidal,18.4411,1.4078,36.09,36,74,6.91,ML,1722178748
122,margate,51.3813,1.3862,23.82,59,9,4.83,GB,1722178749
123,nuku'alofa,-21.1333,-175.2,20.19,64,40,4.63,TO,1722178751
124,saint-pierre,-21.3393,55.4781,22.82,73,0,3.09,RE,1722178752
125,ha tinh,18.3333,105.9,26.17,89,100,2.18,VN,1722178756
126,cidreira,-30.1811,-50.2056,17.61,91,100,3.37,BR,1722178757
127,ordynskoye,54.3656,81.8994,17.47,95,66,0.3,RU,1722178759
128,puerto ayora,-0.7393,-90.3518,20.98,92,70,2.24,EC,1722178760
129,bilimbay,56.9689,59.8149,10.13,94,100,3.99,RU,1722178761
130,makoua,0.0069,15.6333,34.54,32,98,1.58,CG,1722178763
131,petropavlovsk-kamchatsky,53.0452,158.6483,10.33,100,75,2.0,RU,1722178767
132,doctor juan leon mallorquin,-25.4,-55.2667,21.85,37,77,1.6,PY,1722178768
133,sao jose da coroa grande,-8.8978,-35.1478,26.92,71,4,4.45,BR,1722178769
134,yagoua,10.3411,15.2329,27.26,73,100,5.07,CM,1722178771
135,gadani,25.1185,66.7299,31.12,83,100,4.6,PK,1722178772
136,guerrero negro,27.9769,-114.0611,20.52,78,49,4.86,MX,1722178774
137,karratha,-20.7377,116.8463,18.76,35,1,4.58,AU,1722178777
138,lata,40.1629,-8.3327,34.72,38,20,5.27,PT,1722178779
139,san agustin de valle fertil,-30.6335,-67.4682,13.49,37,0,1.91,AR,1722178780
140,puerto santa,-8.9906,-78.6456,17.82,77,74,2.3,PE,1722178782
141,pizarro,4.9533,-77.366,28.37,77,41,0.27,CO,1722178783
142,ushuaia,-54.8,-68.3,-1.19,86,75,9.26,AR,1722178784
143,vorkuta,67.5,64.0,18.64,77,98,4.73,RU,1722178788
144,margaret river,-33.95,115.0667,14.97,60,37,8.08,AU,1722178789
145,chernyshevskiy,63.0128,112.4714,17.24,90,100,1.15,RU,1722178791
146,nova vicosa,-17.8919,-39.3719,26.85,59,1,4.83,BR,1722178792
147,ierapetra,35.01,25.7353,31.75,41,0,6.71,GR,1722178794
148,punta arenas,-53.15,-70.9167,0.06,69,20,6.69,CL,1722178638
149,gorom-gorom,14.4439,-0.2361,26.06,70,100,4.55,BF,1722178800
150,montbard,47.5833,4.5,22.77,62,0,3.9,FR,1722178801
151,bulgan,48.8125,103.5347,15.87,82,67,1.11,MN,1722178802
152,mccomb,31.2438,-90.4531,29.45,87,55,1.84,US,1722178805
153,ketchikan,55.3422,-131.6461,14.26,94,100,1.54,US,1722178809
154,newton,42.337,-71.2092,28.2,55,0,2.57,US,1722178533
155,mount isa,-20.7333,139.5,10.87,46,5,4.12,AU,1722178813
156,mata-utu,-13.2816,-176.1745,25.09,59,100,9.8,WF,1722178815
157,kavaratti,10.5669,72.642,28.35,85,100,9.47,IN,1722178816
158,akrehamn,59.2667,5.1833,17.9,72,75,4.63,NO,1722178818
159,crane,31.3974,-102.3501,25.86,60,0,9.63,US,1722178820
160,lihue,21.9789,-159.3672,22.77,94,75,5.66,US,1722178821
161,chardara,41.2547,67.9692,32.39,24,0,7.06,KZ,1722178823
162,callao,-12.0667,-77.15,17.07,88,100,1.54,PE,1722178824
163,erenhot,43.6475,111.9767,27.93,36,65,2.73,CN,1722178825
164,choyr,46.3611,108.3611,22.94,54,50,3.24,MN,1722178827
165,at taj,24.2049,23.2857,38.64,12,0,2.88,LY,1722178828
166,greymouth,-42.4667,171.2,10.32,93,100,3.26,NZ,1722178829
167,geraldton,-28.7667,114.6,17.23,82,75,4.12,AU,1722178831
168,aleksandrovsk-sakhalinskiy,50.8975,142.1561,17.06,100,100,0.4,RU,1722178832
169,pangkalpinang,-2.1333,106.1333,26.33,79,51,3.71,ID,1722178834
170,alofi,-19.0595,-169.9187,20.94,68,40,5.66,NU,1722178836
171,spinazzola,40.9671,16.0916,35.37,16,0,5.38,IT,1722178837
172,maintirano,-18.0667,44.0167,23.83,65,0,4.64,MG,1722178838
173,port alfred,-33.5906,26.891,12.32,65,23,3.13,ZA,1722178840
174,klyuchi,52.2667,79.1667,23.12,59,47,2.92,RU,1722178841
175,hadibu,12.65,54.0333,26.71,76,97,8.17,YE,1722178844
176,klaksvik,62.2266,-6.589,12.51,90,77,8.58,FO,1722178846
177,saipan,15.1355,145.701,28.87,76,30,3.91,MP,1722178847
178,sinabang,2.4803,96.3801,25.85,87,100,3.88,ID,1722178849
179,fortuna,40.5982,-124.1573,14.4,92,100,2.57,US,1722178850
180,butterworth,5.3991,100.3638,31.02,77,20,3.6,MY,1722178851
181,soanierana ivongo,-16.9167,49.5833,21.14,82,5,1.65,MG,1722178853
182,bonthe,7.5264,-12.505,25.01,91,100,4.51,SL,1722178856
183,cururupu,-1.8283,-44.8683,31.4,51,0,3.52,BR,1722178857
184,iskateley,67.6803,53.1512,13.44,80,100,5.68,RU,1722178858
185,zaysan,47.4667,84.8667,27.88,29,84,2.17,KZ,1722178861
186,nova sintra,14.8667,-24.7167,26.33,83,18,6.17,CV,1722178862
187,dolores,-36.3132,-57.6792,10.6,33,4,3.54,AR,1722178865
188,kita,13.0349,-9.4895,30.51,68,73,2.2,ML,1722178867
189,lugovoye,42.9094,72.7178,29.26,25,8,1.02,KZ,1722178869
190,mhamid,29.82,-5.72,43.19,8,70,10.48,MA,1722178870
191,yemetsk,63.4721,41.7941,21.19,45,88,3.33,RU,1722178872
192,aykol,38.1751,77.2132,34.37,14,0,1.38,CN,1722178873
193,bathsheba,13.2167,-59.5167,30.34,74,40,5.66,BB,1722178872
194,zalingei,12.9096,23.4741,23.57,82,88,2.28,SD,1722178878
195,woodward,36.4337,-99.3904,29.57,56,0,8.75,US,1722178880
196,olovyannaya,50.95,115.5667,21.9,60,100,2.22,RU,1722178881
197,prince george,53.9166,-122.753,15.9,84,100,2.57,CA,1722178856
198,fale old settlement,-9.3852,-171.2468,27.0,75,100,3.08,TK,1722178884
199,nemuro,43.3236,145.575,15.73,98,100,4.7,JP,1722178887
200,ozu,33.5,132.55,28.99,90,100,0.59,JP,1722178888
201,kingston,17.997,-76.7936,33.42,55,20,2.06,JM,1722178808
202,shawano,44.7822,-88.609,24.63,78,0,1.54,US,1722178892
203,itamaraca,-7.7478,-34.8256,29.03,65,34,5.0,BR,1722178894
204,harstad,68.799,16.5293,14.66,92,100,0.98,NO,1722178897
205,el granada,37.5027,-122.4694,15.9,90,100,4.12,US,1722178899
206,burang,30.25,81.1667,12.56,76,100,0.71,CN,1722178900
207,keflavik,64.0049,-22.5624,12.95,94,75,10.8,IS,1722178901
208,almirante,9.3,-82.4,27.72,68,32,0.6,PA,1722178903
209,nyagan,62.1406,65.3936,18.98,69,7,1.84,RU,1722178904
210,hasaki,35.7333,140.8333,29.22,87,93,3.12,JP,1722178907
211,alice springs,-23.7,133.8833,4.75,70,0,0.0,AU,1722178908
212,nieuw amsterdam,5.8833,-55.0833,32.09,58,40,3.6,SR,1722178910
213,zaozersk,69.4005,32.4476,17.75,59,100,6.18,RU,1722178911
214,bikenibeu village,1.3673,173.1241,27.98,78,20,2.57,KI,1722178913
215,lazaro cardenas,17.9583,-102.2,28.36,79,68,1.53,MX,1722178914
216,pancas,-19.225,-40.8514,28.41,42,11,3.16,BR,1722178917
217,houghton,47.1219,-88.569,28.15,82,36,0.45,US,1722178826
218,hengyang,26.8881,112.615,25.06,94,100,1.51,CN,1722178920
219,hastings,50.8552,0.5729,24.99,62,0,2.38,GB,1722178800
220,awjilah,29.1081,21.2869,37.86,18,49,3.78,LY,1722178923
221,illizi,26.4833,8.4667,42.89,12,1,8.49,DZ,1722178827
222,shubarshi,48.5872,57.1869,26.85,22,36,6.85,KZ,1722178927
223,palikir - national government center,6.9248,158.1611,26.36,76,100,3.44,FM,1722178929
224,badger,64.8,-147.5333,11.14,91,100,6.69,US,1722178930
225,wellston,39.1234,-82.5329,27.94,41,15,1.79,US,1722178932
226,port blair,11.6667,92.75,29.02,84,100,4.12,IN,1722178933
227,kish,26.5578,54.0194,36.15,59,100,8.23,IR,1722178933
228,enewetak,11.3474,162.3373,26.39,86,100,10.54,MH,1722178936
229,ceeldheer,3.8488,47.1806,25.9,73,80,9.67,SO,1722178937
230,hamilton,39.1834,-84.5333,30.23,59,0,3.09,US,1722178939
231,pandan,14.0453,124.1694,26.0,87,69,2.49,PH,1722178940
232,vadso,70.0744,29.7487,21.49,72,100,8.75,NO,1722178941
233,constantia,44.1833,28.65,32.61,51,0,6.15,RO,1722178701
234,chonchi,-42.6128,-73.8092,5.07,68,8,2.07,CL,1722178944
235,at-bashi,41.1702,75.8106,20.01,57,11,1.2,KG,1722178945
236,aljezur,37.3191,-8.8033,26.34,52,60,2.27,PT,1722178947
237,adh dhibiyah,24.5014,45.9686,39.73,10,73,7.23,SA,1722178948
238,saint-francois,46.4154,3.9054,26.69,59,0,3.6,FR,1722178951
239,alotau,-10.3069,150.4462,21.24,90,62,1.84,PG,1722178953
240,alenquer,-1.9417,-54.7383,33.24,44,3,3.25,BR,1722178870
241,punta del este,-34.9667,-54.95,12.06,69,0,2.57,UY,1722178956
242,kodala,19.6333,84.95,28.47,76,98,0.94,IN,1722178957
243,kupang,-10.1667,123.5833,27.32,78,100,3.09,ID,1722178958
244,the pas,53.8251,-101.2541,17.01,88,100,4.63,CA,1722178960
245,mgandu,-5.95,34.1333,27.08,20,1,2.79,TZ,1722178962
246,byron bay,-28.65,153.6167,9.47,58,0,4.89,AU,1722178963
247,rakitovo,41.9833,24.0833,28.28,30,0,2.38,BG,1722178964
248,ancud,-41.8697,-73.8203,6.1,64,4,2.04,CL,1722178808
249,new norfolk,-42.7826,147.0587,4.4,94,22,1.11,AU,1722178967
250,nishinoomote,30.7333,131.0,28.38,82,5,3.7,JP,1722178968
251,jiangzi,28.95,89.6333,7.34,69,99,1.71,CN,1722178970
252,millville,39.4021,-75.0393,29.59,45,0,2.06,US,1722178972
253,eydhafushi,5.1033,73.0708,28.19,84,100,6.3,MV,1722178973
254,tosontsengel,48.7567,98.2839,13.91,85,100,1.33,MN,1722178974
255,smithers,54.7804,-127.1743,12.18,100,100,1.03,CA,1722178850
256,pita,10.8333,-12.5833,27.79,83,99,1.47,GN,1722178977
257,tibanbang,6.6315,126.1055,26.73,83,27,2.6,PH,1722178980
258,mogadishu,2.0371,45.3438,26.93,78,40,8.75,SO,1722178981
259,sao miguel do araguaia,-13.275,-50.1628,33.38,22,0,4.99,BR,1722178983
260,ghat,24.9647,10.1728,41.73,12,3,5.47,LY,1722178984
261,punta gorda,26.9298,-82.0454,32.99,76,0,0.45,US,1722178964
262,harnosand,62.6323,17.9379,19.0,60,55,8.08,SE,1722178988
263,zelenoborskiy,66.845,32.3622,17.01,55,12,2.38,RU,1722178989
264,coahuayana de hidalgo,18.7,-103.6583,29.24,68,13,0.58,MX,1722178991
265,selfoss,63.9331,-20.9971,11.58,95,100,7.58,IS,1722178992
266,lompoc,34.6391,-120.4579,14.94,85,100,2.57,US,1722178993
267,el alto,-4.2714,-81.2147,19.81,71,36,1.61,PE,1722178995
268,sao joao da barra,-21.6403,-41.0511,30.05,67,0,5.53,BR,1722178946
269,qui nhon,13.7667,109.2333,28.28,71,100,3.76,VN,1722178999
270,dali,25.7,100.1833,20.28,84,92,2.02,CN,1722179000
271,greenville,35.6127,-77.3663,28.41,54,0,2.06,US,1722178709
272,kalianget,-7.05,113.9333,26.96,76,6,4.96,ID,1722179003
273,zarand,30.8127,56.564,35.92,9,5,4.09,IR,1722179004
274,luganville,-15.5333,167.1667,23.57,72,96,5.07,VU,1722179007
275,alta,69.9689,23.2717,15.59,83,75,5.14,NO,1722179008
276,antonio enes,-16.2325,39.9086,24.09,64,0,5.06,MZ,1722178934
277,kuznetsk,53.1167,46.6004,23.68,46,52,5.33,RU,1722179011
278,hami,42.8,93.45,32.63,21,43,7.42,CN,1722179012
279,itoman,26.1247,127.6694,30.21,86,20,4.63,JP,1722179013
280,deniliquin,-35.5333,144.9667,3.29,78,7,3.39,AU,1722179017
281,betio village,1.358,172.9211,28.02,72,30,4.6,KI,1722179019
282,sitka,57.0531,-135.33,13.94,88,75,2.57,US,1722179020
283,la sarre,48.8002,-79.1996,23.41,60,0,5.09,CA,1722179021
284,sandnessjoen,66.0217,12.6316,18.06,68,40,3.32,NO,1722179023
285,sabancuy,18.9667,-91.1833,30.08,64,95,3.4,MX,1722179024
286,tamandare,-8.7597,-35.1047,27.35,67,8,4.27,BR,1722179028
287,gizo,-8.103,156.8419,27.03,83,81,6.99,SB,1722179029
288,yeniseysk,58.4497,92.1703,25.04,64,100,1.73,RU,1722179031
289,berdigestyakh,62.0989,126.6992,16.32,72,98,0.13,RU,1722179032
290,zahedan,29.4963,60.8629,38.95,11,0,3.09,IR,1722179033
291,tofol,5.3248,163.0078,27.71,76,100,5.16,FM,1722179035
292,tibu,8.639,-72.7358,31.67,57,44,1.41,CO,1722179038
293,kenai,60.5544,-151.2583,6.05,100,0,1.54,US,1722179040
294,el ejido,36.7763,-2.8146,35.52,42,26,7.6,ES,1722179041
295,chipinge,-20.1883,32.6236,24.72,14,0,0.78,ZW,1722179042
296,juneau,58.3019,-134.4197,12.45,98,100,0.0,US,1722179044
297,port douglas,-16.4833,145.4667,21.09,84,79,3.65,AU,1722179045
298,san antonio de pale,-1.4014,5.6325,22.95,78,86,5.38,GQ,1722178866
299,yaren,-0.5472,166.916,28.44,71,99,3.36,NR,1722179048
300,pitimbu,-7.4706,-34.8086,29.33,71,16,6.09,BR,1722179049
301,mahanoro,-19.9,48.8,22.96,76,0,5.21,MG,1722179051
302,inhambane,-23.865,35.3833,25.99,78,0,8.23,MZ,1722179052
303,sao gabriel da cachoeira,-0.1303,-67.0892,27.89,83,40,2.57,BR,1722179056
304,ta`u,-14.2336,-169.5144,25.09,61,100,8.95,AS,1722179057
305,kirakira,-10.4544,161.9205,25.69,81,13,4.39,SB,1722179058
306,portland,45.5234,-122.6762,16.47,83,100,0.45,US,1722179041
307,lang suan,9.9456,99.0785,24.83,93,100,0.36,TH,1722179061
308,bornu yassu,12.2774,12.5552,32.33,48,98,4.06,NG,1722179062
309,torghay,49.6339,63.4981,24.59,30,39,4.01,KZ,1722179064
310,spanish wells,26.323,-81.7957,32.8,63,0,2.06,US,1722179065
311,minas de marcona,-15.2119,-75.1103,12.67,73,68,5.68,PE,1722179067
312,zambezi,-13.5432,23.1047,32.01,7,1,2.78,ZM,1722179068
313,preobrazheniye,42.9019,133.9064,21.38,100,100,3.12,RU,1722179069
314,robbah,33.2797,6.9098,38.8,18,0,3.96,DZ,1722179071
315,comodoro rivadavia,-45.8667,-67.5,6.92,42,0,10.8,AR,1722178927
316,katsuren-haebaru,26.3369,127.8719,30.21,84,75,4.63,JP,1722179075
317,charters towers,-20.1,146.2667,15.45,76,43,4.47,AU,1722179076
318,balykchy,42.4557,76.1861,25.12,48,33,2.48,KG,1722179078
319,fort bragg,35.139,-79.006,29.26,54,0,2.06,US,1722178843
320,hanzhong,33.0728,107.0303,24.42,76,100,1.11,CN,1722179080
321,acapulco de juarez,16.8634,-99.8901,29.9,70,100,1.54,MX,1722179084
322,nelson,-41.2833,173.2833,10.16,94,100,0.53,NZ,1722179085
323,weno,7.4515,151.8468,27.83,77,100,3.73,FM,1722179086
324,es castell,39.8795,4.2854,32.38,43,0,6.69,ES,1722179088
325,holualoa,19.6228,-155.9522,20.86,85,97,2.37,US,1722179089
326,filingue,14.3521,3.3168,31.89,45,97,0.51,NE,1722179090
327,kerikeri,-35.2268,173.9474,12.73,91,97,1.79,NZ,1722179094
328,susuman,62.7833,148.1667,11.02,59,49,1.76,RU,1722179097
329,richards bay,-28.783,32.0377,19.92,64,26,6.33,ZA,1722179099
330,gadzhiyevo,69.2551,33.3362,19.53,53,100,7.41,RU,1722178905
331,plast,54.3691,60.8136,12.31,84,89,4.96,RU,1722179101
332,talnakh,69.4865,88.3972,21.02,50,29,3.07,RU,1722179105
333,bandar lampung,-5.4254,105.258,23.38,93,83,2.01,ID,1722179106
334,puerto quijarro,-17.7833,-57.7667,34.74,16,0,2.96,BO,1722179107
335,uturoa,-16.7333,-151.4333,26.44,80,24,9.28,PF,1722179109
336,mossendjo,-2.9506,12.7261,25.92,54,100,1.8,CG,1722179110
337,agadez,19.75,10.25,42.85,13,13,3.51,NE,1722179111
338,walvis bay,-22.9575,14.5053,21.53,52,1,7.72,NA,1722179117
339,pangai,-19.8,-174.35,21.35,64,46,11.2,TO,1722179118
340,santa terezinha,-29.9002,-50.0904,17.18,96,100,2.67,BR,1722179120
341,vila velha,-20.3297,-40.2925,28.97,62,20,6.26,BR,1722178807
342,roma,43.2128,-75.4557,26.49,59,0,0.89,US,1722178931
343,kruisfontein,-34.0033,24.7314,8.27,74,74,12.79,ZA,1722179126
344,mandan,46.8267,-100.8896,22.99,77,0,5.66,US,1722178917
345,pisco,-13.7,-76.2167,16.03,82,100,1.03,PE,1722179128
346,thala,35.5724,8.6703,34.97,14,0,3.29,TN,1722179130
347,acarau,-2.8856,-40.12,30.87,58,59,8.92,BR,1722178867
348,nurmes,63.5421,29.1397,20.77,77,97,0.59,FI,1722179133
349,vorgashor,67.5833,63.95,18.34,76,92,4.92,RU,1722179483
350,puerto deseado,-47.7503,-65.8938,2.97,50,72,10.0,AR,1722179485
351,cintalapa de figueroa,16.7333,-93.7167,23.44,90,98,0.94,MX,1722179243
352,aginskoye,51.1,114.53,19.5,68,96,1.27,RU,1722179491
353,argo,37.6333,22.7333,32.66,28,0,6.53,GR,1722179494
354,ulanhot,46.0833,122.0833,20.43,91,0,0.35,CN,1722179421
355,natal,-5.795,-35.2094,28.36,69,75,4.12,BR,1722179266
356,bogande,12.9714,-0.1436,25.27,74,100,0.99,BF,1722179499
357,lospalos,-8.5186,127.0025,22.12,92,100,3.21,TL,1722179500
358,portoferraio,42.8115,10.3146,27.91,74,0,5.06,IT,1722179503
359,zima,53.9202,102.0442,21.99,81,70,0.55,RU,1722179505
360,akdepe,42.0551,59.3788,28.78,37,34,8.48,TM,1722179506
361,anna regina,7.2644,-58.5077,29.4,66,7,3.63,GY,1722179508
362,chibougamau,49.9168,-74.3659,26.2,34,14,5.23,CA,1722179509
363,vilyuysk,63.7553,121.6247,16.7,64,100,1.76,RU,1722179511
364,anadyr,64.75,177.4833,5.28,80,0,0.0,RU,1722179512
365,malvan,16.0667,73.4667,27.3,86,100,10.51,IN,1722179515
366,flin flon,54.7682,-101.865,17.18,74,2,3.33,CA,1722179516
367,seven pagodas,12.6264,80.1722,33.4,53,94,7.09,IN,1722179518
368,chandler,33.3062,-111.8412,34.78,46,0,5.66,US,1722179519
369,malpica,43.3228,-8.8105,28.4,82,92,6.64,ES,1722179521
370,tamanrasset,22.785,5.5228,36.94,13,67,5.17,DZ,1722179522
371,qamdo,31.1667,97.2333,8.31,91,100,2.9,CN,1722179524
372,lira,2.235,32.9097,20.69,85,96,3.0,UG,1722179525
373,sanctuary point,-35.1114,150.629,9.86,49,100,7.95,AU,1722179527
374,marsabit,2.3284,37.9899,25.5,40,28,4.81,KE,1722179528
375,ribe,55.3305,8.7697,20.21,62,2,7.78,DK,1722179529
376,misrikh,27.45,80.5167,32.62,60,27,3.08,IN,1722179531
377,lemvig,56.5486,8.3102,20.11,75,0,10.14,DK,1722179532
378,coronado,32.6859,-117.1831,20.6,86,75,1.79,US,1722179534
379,sola,-13.8833,167.55,24.9,70,66,9.09,VU,1722179535
380,nyurba,63.2842,118.3319,16.0,84,100,1.08,RU,1722179536
381,cedeira,43.6797,-8.0209,26.69,88,89,10.27,ES,1722179538
382,indramayu,-6.3264,108.32,25.95,70,4,4.87,ID,1722179539
383,olinda,-8.0089,-34.8553,28.85,74,20,5.66,BR,1722179417
384,harlingen,26.1906,-97.6961,30.95,91,40,6.17,US,1722179447
385,boguchar,49.9358,40.545,32.29,20,73,3.26,RU,1722179543
386,acapetahua,15.2833,-92.7,28.2,72,100,0.99,MX,1722179545
387,limulunga,-15.0969,23.1376,31.89,7,1,0.33,ZM,1722179546
388,haiku-pauwela,20.9219,-156.3051,22.36,82,20,2.06,US,1722179548
389,patterson,37.4716,-121.1297,17.25,79,0,0.99,US,1722179549
390,tralee,52.2704,-9.7026,22.14,56,75,5.14,IE,1722179550
391,buellton,34.6136,-120.1927,18.6,100,100,0.0,US,1722179552
392,colonia,50.9333,6.95,26.09,48,0,3.09,DE,1722179553
393,freetown,8.484,-13.2299,24.95,90,100,4.5,SL,1722179555
394,siwa oasis,29.2041,25.5195,37.98,16,7,5.26,EG,1722179556
395,bubaque,11.2833,-15.8333,26.65,84,100,2.08,GW,1722179559
396,grand falls-windsor,48.9332,-55.6649,19.82,60,100,4.79,CA,1722179560
397,motueka,-41.1333,173.0167,10.61,96,100,0.93,NZ,1722179562
398,nadi,-17.8,177.4167,17.0,77,20,1.54,FJ,1722179563
399,mbuji-mayi,-6.15,23.6,35.23,9,0,0.96,CD,1722179289
400,mabaruma,8.2,-59.7833,27.75,87,36,1.14,GY,1722179566
401,princeville,45.7668,-61.2985,26.97,68,1,3.58,CA,1722179567
402,leh,34.1667,77.5833,23.61,20,75,3.9,IN,1722179569
403,tolanaro,-25.0319,46.9987,20.93,84,0,2.56,MG,1722179570
404,severnoye,56.3491,78.3619,17.7,89,1,2.87,RU,1722179571
405,xiongzhou,25.1167,114.3,24.37,99,100,0.54,CN,1722179573
406,mount pearl,47.5166,-52.7813,22.4,59,100,3.58,CA,1722179574
407,irymple,-34.25,142.1667,3.38,77,4,3.85,AU,1722179464
408,kovdor,67.5662,30.4758,22.32,41,0,2.59,RU,1722179577
409,bac lieu,9.285,105.7244,26.67,86,100,1.41,VN,1722179580
410,queenstown,-31.8976,26.8753,8.55,33,42,10.17,ZA,1722179581
411,mersing,2.4312,103.8405,26.84,84,50,3.29,MY,1722179583
412,tulle,45.3333,1.8333,32.52,31,21,0.87,FR,1722179584
413,labytnangi,66.6572,66.4183,17.69,81,100,7.26,RU,1722179585
414,iwon-up,40.3231,128.6553,26.06,84,99,7.08,KP,1722179587
415,miranda de ebro,42.6865,-2.947,35.32,18,5,8.11,ES,1722179290
416,fisterra,42.9049,-9.2629,28.9,85,99,7.28,ES,1722179590
417,sbikha,35.9333,10.0208,29.57,22,0,7.14,TN,1722179591
418,maxixe,-23.8597,35.3472,24.15,72,0,8.44,MZ,1722179592
419,okhotsk,59.3833,143.3,10.08,77,98,1.62,RU,1722179594
420,tanjung selor,2.8372,117.3642,24.14,99,79,0.55,ID,1722179595
421,jiujiang,29.7333,115.9833,28.29,75,33,2.64,CN,1722179596
422,skagen,57.7209,10.5839,17.76,67,2,6.91,DK,1722179598
423,san juan de miraflores,-12.1629,-76.9635,16.21,89,37,2.5,PE,1722179599
424,barra de santo antonio,-9.4047,-35.5072,28.6,74,71,4.46,BR,1722179601
425,kosh-agach,50.0,88.6667,17.13,48,93,2.06,RU,1722179602
426,al bahah,20.0129,41.4677,28.68,54,68,2.88,SA,1722179603
427,morondava,-20.2833,44.2833,22.47,66,0,4.09,MG,1722179605
428,mount gambier,-37.8333,140.7667,8.3,74,100,1.6,AU,1722179606
429,zouerate,22.7187,-12.4521,38.78,13,2,4.9,MR,1722179608
430,lebu,-37.6167,-73.65,7.0,59,7,10.01,CL,1722179609
431,porto novo,6.4965,2.6036,27.45,69,95,6.74,BJ,1722179610
432,tevriz,57.509,72.4042,15.66,94,82,2.94,RU,1722179612
433,mamontovo,52.7055,81.6244,19.58,93,100,2.42,RU,1722179613
434,mandal,25.45,74.5667,30.89,69,99,2.96,IN,1722179616
435,berezovo,63.9381,65.0419,20.04,62,94,3.04,RU,1722179617
436,amberieu-en-bugey,45.9589,5.3432,29.86,56,28,3.93,FR,1722179619
437,namtsy,62.7161,129.6658,16.15,67,43,2.48,RU,1722179620
438,happy valley-goose bay,53.3168,-60.3315,26.57,52,100,5.75,CA,1722179623
439,gualeguay,-33.1416,-59.3097,15.04,39,35,5.32,AR,1722179624
440,east ballina,-28.8667,153.5833,8.78,56,0,5.1,AU,1722179628
441,polyarnyy,69.1989,33.4478,19.44,52,100,7.23,RU,1722179629
442,thinadhoo,0.5333,72.9333,29.25,72,94,4.16,MV,1722179631
443,pinotepa nacional,16.3167,-98.0167,26.68,81,93,0.92,MX,1722179632
444,rio grande,-32.035,-52.0986,15.06,83,100,7.2,BR,1722179357
445,sarkisla,39.3519,36.4098,22.74,43,4,9.69,TR,1722179635
446,veraval,20.9,70.3667,28.01,88,100,8.1,IN,1722179638
447,kulhudhuffushi,6.6221,73.07,28.26,82,100,7.83,MV,1722179640
448,grand baie,-20.0182,57.5802,22.26,78,10,6.24,MU,1722179641
449,usinsk,65.9939,57.5281,18.95,71,99,8.45,RU,1722179643
450,miquelon,47.0975,-56.3814,20.0,90,88,5.62,PM,1722179644
451,henderson,36.0397,-114.9819,31.51,18,0,10.29,US,1722179433
452,kuta,-8.7233,115.1723,25.55,85,93,5.27,ID,1722179648
453,avarua,-21.2078,-159.775,24.03,64,75,11.83,CK,1722179649
454,nantucket,41.2835,-70.0995,24.03,78,0,5.14,US,1722179651
455,kavieng,-2.5744,150.7967,26.92,80,100,4.36,PG,1722179652
456,cambourne,52.22,-0.0701,26.55,50,71,2.22,GB,1722179653
457,mao,39.8885,4.2658,32.31,43,0,6.69,ES,1722179655
458,homa bay,-0.5273,34.4571,24.86,55,19,3.56,KE,1722179656
459,taulaga,-11.0553,-171.0883,26.25,78,100,7.02,AS,1722179658
460,bonham,33.5773,-96.1783,27.5,78,100,4.63,US,1722179659
461,lubang,13.8584,120.124,27.83,78,100,4.5,PH,1722179661
462,dul'durga,50.6761,113.5931,18.52,77,39,0.71,RU,1722179665
463,bardai,11.65,7.2333,21.95,91,100,5.6,NG,1722179668
464,inirida,3.8653,-67.9239,26.09,76,96,0.77,CO,1722179669
465,umea,63.8284,20.2597,21.96,68,40,1.03,SE,1722179670
466,tres coroas,-29.5169,-50.7778,22.12,92,100,1.23,BR,1722179672
467,pacific grove,36.6177,-121.9166,15.24,90,100,0.89,US,1722179674
468,tari,-11.1105,14.3559,23.71,45,91,3.38,AO,1722179675
469,upper grand lagoon,30.1633,-85.7408,31.12,78,75,0.89,US,1722179676
470,shemonaikha,50.6328,81.9056,22.41,81,97,2.82,KZ,1722179678
471,murun-kuren,49.6342,100.1625,15.93,83,50,1.97,MN,1722179679
472,essaouira,31.5125,-9.77,21.89,82,0,7.05,MA,1722179681
473,pimentel,-6.8367,-79.9342,18.16,77,100,2.57,PE,1722179682
474,korba,22.35,82.6833,25.06,93,99,2.21,IN,1722179683
475,whangarei,-35.7317,174.3239,12.13,79,82,2.03,NZ,1722179685
476,jalai nur,49.45,117.7,19.72,71,90,1.65,CN,1722179686
477,nuevo casas grandes,30.4167,-107.9167,25.92,45,74,1.41,MX,1722179688
478,bria,6.5423,21.9863,26.13,85,79,2.66,CF,1722179689
479,itaituba,-4.2761,-55.9836,36.42,27,6,2.47,BR,1722179693
480,jhelum,32.9331,73.7264,37.27,46,100,4.4,PK,1722179694
481,mili,6.0815,171.735,27.42,79,100,4.0,MH,1722179695
482,pokachi,61.7198,75.3683,20.32,61,99,2.15,RU,1722179697
483,sumberpucung,-8.1586,112.4829,18.9,98,36,0.77,ID,1722179698
484,popondetta,-8.7537,148.2534,23.28,95,100,1.58,PG,1722179699
485,yakeshi,49.2833,120.7333,16.09,88,70,1.36,CN,1722179703
486,severo-yeniseyskiy,60.3725,93.0408,18.64,63,58,1.94,RU,1722179705
487,kani keli,-12.9536,45.1033,26.59,65,14,3.04,YT,1722179706
488,leninsk-kuznetsky,54.6567,86.1737,19.09,97,100,7.06,RU,1722179707
489,sayyan,15.1718,44.3244,21.78,43,74,3.49,YE,1722179709
490,banfora,10.6333,-4.7667,29.63,66,98,3.4,BF,1722179710
491,sarmiento,-45.5882,-69.07,5.05,47,0,9.46,AR,1722179714
492,paita,-5.0892,-81.1144,19.49,73,60,4.95,PE,1722179715
493,lodja,-3.4833,23.4333,36.8,15,77,0.76,CD,1722179716
494,male,4.1748,73.5089,28.38,80,99,5.51,MV,1722179719
495,christchurch,-43.5333,172.6333,7.75,84,75,6.71,NZ,1722179722
496,egilsstadir,65.2653,-14.3948,18.77,53,99,6.26,IS,1722179723
497,kapuskasing,49.4169,-82.4331,26.79,61,1,5.53,CA,1722179726
498,chiredzi,-21.05,31.6667,30.84,9,0,2.75,ZW,1722179729
499,luwuk,-0.9516,122.7875,22.31,90,61,1.93,ID,1722179732
500,keelakarai,9.2333,78.7833,31.01,52,100,10.43,IN,1722179733
501,kyzyl-suu,42.3414,78.0056,23.14,49,78,4.41,KG,1722179734
502,castlegar,49.2998,-117.6689,18.5,46,27,0.83,CA,1722179736
503,mutuali,-14.8706,37.0044,26.76,19,0,1.33,MZ,1722179737
504,alpinopolis,-20.8636,-46.3881,28.14,28,0,2.82,BR,1722179739
505,el jadid,33.2549,-8.506,23.73,71,23,6.12,MA,1722179742
506,gurupi,-11.7292,-49.0686,33.43,24,0,4.58,BR,1722179542
507,saldanha,-33.0117,17.9442,12.42,60,36,6.87,ZA,1722179745
508,tiptur,13.2586,76.4783,21.99,82,100,7.1,IN,1722179746
509,agat village,13.3886,144.6585,28.06,92,0,0.0,GU,1722179747
510,labrador city,52.9463,-66.9114,25.1,60,97,2.24,CA,1722179749
511,howard springs,-12.497,131.047,26.95,88,100,3.14,AU,1722179751
512,cedral,23.8,-100.7333,18.94,83,100,4.26,MX,1722179752
513,riviere-du-loup,47.8304,-69.5342,13.49,65,96,7.28,CA,1722179753
514,belozersk,60.0326,37.7957,23.56,51,52,0.22,RU,1722179755
515,cidade velha,14.9167,-23.6167,29.26,70,75,3.09,CV,1722179756
516,prozor,43.8222,17.6092,31.46,26,10,1.23,BA,1722179757
517,zakynthos,37.7914,20.8953,35.62,30,0,2.06,GR,1722179760
518,cannonvale,-20.2833,148.7,18.66,66,89,7.42,AU,1722179761
519,nadym,65.5333,72.5167,20.36,94,100,6.21,RU,1722179762
520,belem do brejo do cruz,-6.1886,-37.5358,28.98,49,93,7.37,BR,1722179764
521,zaragoza,41.6561,-0.8773,38.03,18,0,6.17,ES,1722179765
522,lorengau,-2.0226,147.2712,26.57,84,11,0.89,PG,1722179767
523,valparaiso,-33.0393,-71.6273,16.13,47,0,0.0,CL,1722179514
524,martapura,-3.4167,114.85,26.05,89,27,0.0,ID,1722179770
525,port augusta,-32.5,137.7667,6.33,67,0,2.74,AU,1722179771
526,srikakulam,18.3,83.9,28.1,86,83,4.19,IN,1722179773
527,wad az zaki,14.4619,32.2065,31.88,44,90,6.71,SD,1722179774
528,yuzhno-kurilsk,44.0306,145.8556,15.3,99,100,3.78,RU,1722179776
529,andrews,32.3187,-102.5457,25.04,70,0,6.69,US,1722179779
530,carnarvon,-24.8667,113.6333,18.74,68,0,1.91,AU,1722179780
531,levanger,63.7464,11.2996,15.03,76,55,5.77,NO,1722179782
532,masterton,-40.9597,175.6575,11.72,77,100,3.92,NZ,1722179783
533,ballina,-28.8667,153.5667,8.77,56,0,5.1,AU,1722179784
534,tateyama,34.9833,139.8667,28.39,89,100,1.48,JP,1722179786
535,monteagudo,-19.8167,-63.9833,24.96,47,84,1.39,BO,1722179790
536,corn island,12.1694,-83.0418,27.23,83,100,10.08,NI,1722179791
537,ghadamis,30.1337,9.5007,41.33,9,0,5.15,LY,1722179792
538,boguchany,58.3814,97.4531,20.66,73,1,1.96,RU,1722179794
539,san pedro pochutla,15.7333,-96.4667,30.84,80,100,0.45,MX,1722179795
540,bandiagara,14.3501,-3.6104,35.53,38,100,3.04,ML,1722179797
541,salekhard,66.53,66.6019,17.35,84,100,7.31,RU,1722179800
542,nortelandia,-14.4547,-56.8028,35.43,16,0,1.5,BR,1722179801
543,pangody,65.85,74.4859,23.44,61,62,9.45,RU,1722179803
544,kristiansund,63.1115,7.732,16.03,87,75,7.72,NO,1722179804
545,novyy urgal,51.0736,132.5642,15.53,97,52,1.41,RU,1722179805
546,brokopondo,4.75,-55.1667,28.09,71,9,0.51,SR,1722179810
547,coxen hole,16.3244,-86.5366,30.6,74,75,5.14,HN,1722179811
548,serra talhada,-7.9919,-38.2983,31.42,34,31,5.54,BR,1722179813
549,sipalay,9.75,122.5,25.2,84,93,0.71,PH,1722179814
550,ponta delgada,37.7333,-25.6667,24.4,78,20,6.69,PT,1722179815
